var bicicletarios = {"type": "FeatureCollection", "crs": {"type": "name", "properties": {"name": "EPSG:4326"}}, "features": [{"type": "Feature", "id": 3827, "geometry": {"type": "Point", "coordinates": [-8.623661006044033, 41.15432193513463]}, "properties": {"objectid": 3827, "toponimia": "LLBRA0", "n_lugar": 6, "par_gra": "S"}}, {"type": "Feature", "id": 3826, "geometry": {"type": "Point", "coordinates": [-8.598493767991519, 41.14477806808588]}, "properties": {"objectid": 3826, "toponimia": "RJAAG0", "n_lugar": 5, "par_gra": "S"}}, {"type": "Feature", "id": 3828, "geometry": {"type": "Point", "coordinates": [-8.620268954968113, 41.15911636944121]}, "properties": {"objectid": 3828, "toponimia": "RBFOR0", "n_lugar": 5, "par_gra": "S"}}, {"type": "Feature", "id": 1373, "geometry": {"type": "Point", "coordinates": [-8.678457251506863, 41.170350378450436]}, "properties": {"objectid": 1373, "toponimia": "ECIRC0", "n_lugar": 7, "par_gra": "S"}}, {"type": "Feature", "id": 1365, "geometry": {"type": "Point", "coordinates": [-8.609293291037604, 41.1510723686462]}, "properties": {"objectid": 1365, "toponimia": "RFTOM0", "n_lugar": 10, "par_gra": "S"}}, {"type": "Feature", "id": 1372, "geometry": {"type": "Point", "coordinates": [-8.679462729610849, 41.167008056950614]}, "properties": {"objectid": 1372, "toponimia": "ABOAV0", "n_lugar": 5, "par_gra": "S"}}, {"type": "Feature", "id": 1366, "geometry": {"type": "Point", "coordinates": [-8.687680947687035, 41.17143898757541]}, "properties": {"objectid": 1366, "toponimia": "VCQUE0", "n_lugar": 18, "par_gra": "S"}}, {"type": "Feature", "id": 1367, "geometry": {"type": "Point", "coordinates": [-8.687316633033557, 41.168958644165365]}, "properties": {"objectid": 1367, "toponimia": "VCQUE0", "n_lugar": 7, "par_gra": "S"}}, {"type": "Feature", "id": 1368, "geometry": {"type": "Point", "coordinates": [-8.689511143783436, 41.16731043581892]}, "properties": {"objectid": 1368, "toponimia": "PGZAR0", "n_lugar": 3, "par_gra": "S"}}, {"type": "Feature", "id": 1369, "geometry": {"type": "Point", "coordinates": [-8.685151549847156, 41.160721938310466]}, "properties": {"objectid": 1369, "toponimia": "AMONT0", "n_lugar": 3, "par_gra": "S"}}, {"type": "Feature", "id": 1374, "geometry": {"type": "Point", "coordinates": [-8.678198918953317, 41.16853226392135]}, "properties": {"objectid": 1374, "toponimia": "ABOAV0", "n_lugar": 7, "par_gra": "S"}}, {"type": "Feature", "id": 1375, "geometry": {"type": "Point", "coordinates": [-8.573605963237245, 41.15992303194395]}, "properties": {"objectid": 1375, "toponimia": "ACART0", "n_lugar": 5, "par_gra": "S"}}, {"type": "Feature", "id": 1378, "geometry": {"type": "Point", "coordinates": [-8.643153484168614, 41.174432542182515]}, "properties": {"objectid": 1378, "toponimia": "RDJCO0", "n_lugar": 3, "par_gra": "S"}}, {"type": "Feature", "id": 1381, "geometry": {"type": "Point", "coordinates": [-8.60481254141859, 41.14965861318371]}, "properties": {"objectid": 1381, "toponimia": "RFTOM0", "n_lugar": 6, "par_gra": "S"}}, {"type": "Feature", "id": 1382, "geometry": {"type": "Point", "coordinates": [-8.600444588967187, 41.145747845703404]}, "properties": {"objectid": 1382, "toponimia": "ARFRE0", "n_lugar": 6, "par_gra": "S"}}, {"type": "Feature", "id": 1383, "geometry": {"type": "Point", "coordinates": [-8.620279779116482, 41.14228045683498]}, "properties": {"objectid": 1383, "toponimia": "RNALF0", "n_lugar": 10, "par_gra": "S"}}, {"type": "Feature", "id": 1384, "geometry": {"type": "Point", "coordinates": [-8.67229739569135, 41.16578652811379]}, "properties": {"objectid": 1384, "toponimia": "APARQ0", "n_lugar": 5, "par_gra": "S"}}, {"type": "Feature", "id": 1386, "geometry": {"type": "Point", "coordinates": [-8.615336091467437, 41.147258861439546]}, "properties": {"objectid": 1386, "toponimia": "PGTEI0", "n_lugar": 5, "par_gra": "S"}}, {"type": "Feature", "id": 1388, "geometry": {"type": "Point", "coordinates": [-8.614473255362983, 41.14604519045958]}, "properties": {"objectid": 1388, "toponimia": "RSFNE0", "n_lugar": 5, "par_gra": "S"}}, {"type": "Feature", "id": 1390, "geometry": {"type": "Point", "coordinates": [-8.617675498371502, 41.146676399600416]}, "properties": {"objectid": 1390, "toponimia": "LPASA0", "n_lugar": 5, "par_gra": "S"}}, {"type": "Feature", "id": 1380, "geometry": {"type": "Point", "coordinates": [-8.628810810130627, 41.14507311784852]}, "properties": {"objectid": 1380, "toponimia": "RMONC0", "n_lugar": 5, "par_gra": "S"}}, {"type": "Feature", "id": 3825, "geometry": {"type": "Point", "coordinates": [-8.603482202816137, 41.14603878889084]}, "properties": {"objectid": 3825, "toponimia": "PPOVE0", "n_lugar": 6, "par_gra": "S"}}, {"type": "Feature", "id": 1416, "geometry": {"type": "Point", "coordinates": [-8.677077565891924, 41.16972199064059]}, "properties": {"objectid": 1416, "toponimia": "ABOAV0", "n_lugar": 5, "par_gra": "S"}}, {"type": "Feature", "id": 1392, "geometry": {"type": "Point", "coordinates": [-8.603615511989666, 41.146091285555855]}, "properties": {"objectid": 1392, "toponimia": "PPOVE0", "n_lugar": 5, "par_gra": "S"}}, {"type": "Feature", "id": 1399, "geometry": {"type": "Point", "coordinates": [-8.59973032709573, 41.152790437726814]}, "properties": {"objectid": 1399, "toponimia": "RSPOU0", "n_lugar": 6, "par_gra": "S"}}, {"type": "Feature", "id": 1402, "geometry": {"type": "Point", "coordinates": [-8.6164298556183, 41.147070741910646]}, "properties": {"objectid": 1402, "toponimia": "RCARM1", "n_lugar": 21, "par_gra": "S"}}, {"type": "Feature", "id": 1403, "geometry": {"type": "Point", "coordinates": [-8.615537466877749, 41.145944926189294]}, "properties": {"objectid": 1403, "toponimia": "RDFSI0", "n_lugar": 21, "par_gra": "S"}}, {"type": "Feature", "id": 1404, "geometry": {"type": "Point", "coordinates": [-8.613064238489939, 41.14812626720426]}, "properties": {"objectid": 1404, "toponimia": "PDFLE0", "n_lugar": 5, "par_gra": "S"}}, {"type": "Feature", "id": 1405, "geometry": {"type": "Point", "coordinates": [-8.614837970911516, 41.14285681243465]}, "properties": {"objectid": 1405, "toponimia": "LSDOM0", "n_lugar": 15, "par_gra": "S"}}, {"type": "Feature", "id": 1412, "geometry": {"type": "Point", "coordinates": [-8.671772442049612, 41.165704701039935]}, "properties": {"objectid": 1412, "toponimia": "APARQ0", "n_lugar": 5, "par_gra": "S"}}, {"type": "Feature", "id": 1413, "geometry": {"type": "Point", "coordinates": [-8.671992117080737, 41.170424217843205]}, "properties": {"objectid": 1413, "toponimia": "BCARR1", "n_lugar": 25, "par_gra": "N"}}, {"type": "Feature", "id": 1414, "geometry": {"type": "Point", "coordinates": [-8.671482921571574, 41.17049151291009]}, "properties": {"objectid": 1414, "toponimia": "BCARR1", "n_lugar": 5, "par_gra": "S"}}, {"type": "Feature", "id": 1415, "geometry": {"type": "Point", "coordinates": [-8.67695457393393, 41.17145942519861]}, "properties": {"objectid": 1415, "toponimia": "ECIRC0", "n_lugar": 7, "par_gra": "S"}}, {"type": "Feature", "id": 1417, "geometry": {"type": "Point", "coordinates": [-8.672554962808789, 41.16998794635109]}, "properties": {"objectid": 1417, "toponimia": "APARQ0", "n_lugar": 7, "par_gra": "S"}}, {"type": "Feature", "id": 5426, "geometry": {"type": "Point", "coordinates": [-8.58382387915021, 41.16058076042679]}, "properties": {"objectid": 5426, "toponimia": "VFCPO0", "n_lugar": 12, "par_gra": "S"}}, {"type": "Feature", "id": 4225, "geometry": {"type": "Point", "coordinates": [-8.650879557091882, 41.16191689520127]}, "properties": {"objectid": 4225, "toponimia": "RSJBR0", "n_lugar": 5, "par_gra": "S"}}, {"type": "Feature", "id": 4626, "geometry": {"type": "Point", "coordinates": [-8.595597637510526, 41.17613735279282]}, "properties": {"objectid": 4626, "toponimia": "RDJMA1", "n_lugar": 3, "par_gra": "S"}}, {"type": "Feature", "id": 4625, "geometry": {"type": "Point", "coordinates": [-8.59439532715314, 41.17677475966006]}, "properties": {"objectid": 4625, "toponimia": "RDFVS0", "n_lugar": 3, "par_gra": "S"}}, {"type": "Feature", "id": 5025, "geometry": {"type": "Point", "coordinates": [-8.667876101697845, 41.1569385213678]}, "properties": {"objectid": 5025, "toponimia": "AMGCO0", "n_lugar": 5, "par_gra": "S"}}, {"type": "Feature", "id": 1419, "geometry": {"type": "Point", "coordinates": [-8.629340390204455, 41.160719203915555]}, "properties": {"objectid": 1419, "toponimia": "RCHGA0", "n_lugar": 7, "par_gra": "S"}}, {"type": "Feature", "id": 5026, "geometry": {"type": "Point", "coordinates": [-8.620863324877, 41.16225337928737]}, "properties": {"objectid": 5026, "toponimia": "RSPIN0", "n_lugar": 5, "par_gra": "S"}}, {"type": "Feature", "id": 1420, "geometry": {"type": "Point", "coordinates": [-8.620063265487234, 41.152468830170875]}, "properties": {"objectid": 1420, "toponimia": "RTORR0", "n_lugar": 5, "par_gra": "S"}}, {"type": "Feature", "id": 5027, "geometry": {"type": "Point", "coordinates": [-8.61676639748333, 41.14471482127082]}, "properties": {"objectid": 5027, "toponimia": "CMPAT0", "n_lugar": 6, "par_gra": "S"}}, {"type": "Feature", "id": 5425, "geometry": {"type": "Point", "coordinates": [-8.598724966728321, 41.16503928070698]}, "properties": {"objectid": 5425, "toponimia": "RALEG1", "n_lugar": 2, "par_gra": "S"}}, {"type": "Feature", "id": 1424, "geometry": {"type": "Point", "coordinates": [-8.609429483205414, 41.14906036313267]}, "properties": {"objectid": 1424, "toponimia": "RBONJ0", "n_lugar": 5, "par_gra": "S"}}, {"type": "Feature", "id": 1364, "geometry": {"type": "Point", "coordinates": [-8.601972668249209, 41.1462636626032]}, "properties": {"objectid": 1364, "toponimia": "RDJQU0", "n_lugar": 6, "par_gra": "S"}}, {"type": "Feature", "id": 5427, "geometry": {"type": "Point", "coordinates": [-8.583336125140042, 41.160611240176856]}, "properties": {"objectid": 5427, "toponimia": "VFCPO0", "n_lugar": 12, "par_gra": "S"}}, {"type": "Feature", "id": 1425, "geometry": {"type": "Point", "coordinates": [-8.612459368563155, 41.14576585995544]}, "properties": {"objectid": 1425, "toponimia": "RTRAS0", "n_lugar": 11, "par_gra": "S"}}, {"type": "Feature", "id": 2225, "geometry": {"type": "Point", "coordinates": [-8.650045434463664, 41.175510564208366]}, "properties": {"objectid": 2225, "toponimia": "RMPAZ0", "n_lugar": 7, "par_gra": "S"}}, {"type": "Feature", "id": 1394, "geometry": {"type": "Point", "coordinates": [-8.671401840809008, 41.14754475362339]}, "properties": {"objectid": 1394, "toponimia": "ADCAR0", "n_lugar": 7, "par_gra": "S"}}, {"type": "Feature", "id": 1395, "geometry": {"type": "Point", "coordinates": [-8.667935661666718, 41.14746645776674]}, "properties": {"objectid": 1395, "toponimia": "ADCAR0", "n_lugar": 7, "par_gra": "S"}}, {"type": "Feature", "id": 1407, "geometry": {"type": "Point", "coordinates": [-8.678626385092974, 41.152682817865816]}, "properties": {"objectid": 1407, "toponimia": "RCRPE0", "n_lugar": 3, "par_gra": "S"}}, {"type": "Feature", "id": 1396, "geometry": {"type": "Point", "coordinates": [-8.625892685582626, 41.148740309559514]}, "properties": {"objectid": 1396, "toponimia": "RDMSE0", "n_lugar": 5, "par_gra": "S"}}, {"type": "Feature", "id": 1397, "geometry": {"type": "Point", "coordinates": [-8.637622185778216, 41.1483720990281]}, "properties": {"objectid": 1397, "toponimia": "ROURO0", "n_lugar": 5, "par_gra": "S"}}, {"type": "Feature", "id": 1398, "geometry": {"type": "Point", "coordinates": [-8.63613925496674, 41.15899782664812]}, "properties": {"objectid": 1398, "toponimia": "ABOAV0", "n_lugar": 5, "par_gra": "S"}}, {"type": "Feature", "id": 1406, "geometry": {"type": "Point", "coordinates": [-8.679425788419511, 41.15386029444136]}, "properties": {"objectid": 1406, "toponimia": "ABRAS0", "n_lugar": 3, "par_gra": "S"}}, {"type": "Feature", "id": 1408, "geometry": {"type": "Point", "coordinates": [-8.67616532858364, 41.14949381968391]}, "properties": {"objectid": 1408, "toponimia": "ADCAR0", "n_lugar": 3, "par_gra": "S"}}, {"type": "Feature", "id": 1409, "geometry": {"type": "Point", "coordinates": [-8.674978385230089, 41.14788407177785]}, "properties": {"objectid": 1409, "toponimia": "ADCAR0", "n_lugar": 3, "par_gra": "S"}}, {"type": "Feature", "id": 1410, "geometry": {"type": "Point", "coordinates": [-8.665672717882977, 41.14771204376184]}, "properties": {"objectid": 1410, "toponimia": "RPALE1", "n_lugar": 8, "par_gra": "S"}}, {"type": "Feature", "id": 1825, "geometry": {"type": "Point", "coordinates": [-8.664811592319396, 41.14811167668373]}, "properties": {"objectid": 1825, "toponimia": "RPALE1", "n_lugar": 6, "par_gra": "S"}}, {"type": "Feature", "id": 1411, "geometry": {"type": "Point", "coordinates": [-8.67744161948271, 41.15139811014596]}, "properties": {"objectid": 1411, "toponimia": "TSLUZ0", "n_lugar": 3, "par_gra": "S"}}, {"type": "Feature", "id": 2626, "geometry": {"type": "Point", "coordinates": [-8.672154594719249, 41.1488949503316]}, "properties": {"objectid": 2626, "toponimia": "RPALE1", "n_lugar": 7, "par_gra": "S"}}, {"type": "Feature", "id": 2632, "geometry": {"type": "Point", "coordinates": [-8.663363295683158, 41.155020198921065]}, "properties": {"objectid": 2632, "toponimia": "RJBAR0", "n_lugar": 5, "par_gra": "S"}}, {"type": "Feature", "id": 2633, "geometry": {"type": "Point", "coordinates": [-8.67654362752658, 41.15120124412931]}, "properties": {"objectid": 2633, "toponimia": "RSLUZ1", "n_lugar": 5, "par_gra": "S"}}, {"type": "Feature", "id": 1391, "geometry": {"type": "Point", "coordinates": [-8.625117658883086, 41.14712927254753]}, "properties": {"objectid": 1391, "toponimia": "RJVFE0", "n_lugar": 4, "par_gra": "S"}}, {"type": "Feature", "id": 1421, "geometry": {"type": "Point", "coordinates": [-8.629489485227893, 41.15639257317365]}, "properties": {"objectid": 1421, "toponimia": "PBSUC0", "n_lugar": 6, "par_gra": "S"}}, {"type": "Feature", "id": 1422, "geometry": {"type": "Point", "coordinates": [-8.628515737979983, 41.15558150570951]}, "properties": {"objectid": 1422, "toponimia": "LFLAP0", "n_lugar": 5, "par_gra": "S"}}, {"type": "Feature", "id": 1400, "geometry": {"type": "Point", "coordinates": [-8.618207049414787, 41.14115569663778]}, "properties": {"objectid": 1400, "toponimia": "RNALF0", "n_lugar": 10, "par_gra": "S"}}, {"type": "Feature", "id": 1401, "geometry": {"type": "Point", "coordinates": [-8.614814755835642, 41.14103795974698]}, "properties": {"objectid": 1401, "toponimia": "RIDHE0", "n_lugar": 15, "par_gra": "S"}}, {"type": "Feature", "id": 1376, "geometry": {"type": "Point", "coordinates": [-8.642651663724747, 41.148069964782636]}, "properties": {"objectid": 1376, "toponimia": "ROURO0", "n_lugar": 6, "par_gra": "S"}}, {"type": "Feature", "id": 1423, "geometry": {"type": "Point", "coordinates": [-8.62669130008219, 41.14799454804012]}, "properties": {"objectid": 1423, "toponimia": "RDMSE0", "n_lugar": 7, "par_gra": "S"}}, {"type": "Feature", "id": 1418, "geometry": {"type": "Point", "coordinates": [-8.60446907182947, 41.16551710409046]}, "properties": {"objectid": 1418, "toponimia": "RBOLA0", "n_lugar": 5, "par_gra": "S"}}, {"type": "Feature", "id": 2629, "geometry": {"type": "Point", "coordinates": [-8.63710716035486, 41.150041108263544]}, "properties": {"objectid": 2629, "toponimia": "VPANO0", "n_lugar": 22, "par_gra": "S"}}, {"type": "Feature", "id": 1389, "geometry": {"type": "Point", "coordinates": [-8.615190114948035, 41.14109960176884]}, "properties": {"objectid": 1389, "toponimia": "RIDHE0", "n_lugar": 4, "par_gra": "S"}}, {"type": "Feature", "id": 1370, "geometry": {"type": "Point", "coordinates": [-8.683616295711985, 41.15887996677024]}, "properties": {"objectid": 1370, "toponimia": "ABRAS0", "n_lugar": 3, "par_gra": "S"}}, {"type": "Feature", "id": 1371, "geometry": {"type": "Point", "coordinates": [-8.68113455031137, 41.15583539575972]}, "properties": {"objectid": 1371, "toponimia": "ABRAS0", "n_lugar": 3, "par_gra": "S"}}, {"type": "Feature", "id": 2631, "geometry": {"type": "Point", "coordinates": [-8.633885677039766, 41.14776396679586]}, "properties": {"objectid": 2631, "toponimia": "ROURO0", "n_lugar": 5, "par_gra": "S"}}, {"type": "Feature", "id": 1377, "geometry": {"type": "Point", "coordinates": [-8.60676695363903, 41.142305235101894]}, "properties": {"objectid": 1377, "toponimia": "RAGAM0", "n_lugar": 10, "par_gra": "S"}}, {"type": "Feature", "id": 1387, "geometry": {"type": "Point", "coordinates": [-8.611637430711918, 41.14534073355275]}, "properties": {"objectid": 1387, "toponimia": "RTCOE0", "n_lugar": 3, "par_gra": "S"}}, {"type": "Feature", "id": 2625, "geometry": {"type": "Point", "coordinates": [-8.611133373951812, 41.145193931768695]}, "properties": {"objectid": 2625, "toponimia": "PAGAR0", "n_lugar": 11, "par_gra": "S"}}, {"type": "Feature", "id": 2627, "geometry": {"type": "Point", "coordinates": [-8.608820158578059, 41.141053425133386]}, "properties": {"objectid": 2627, "toponimia": "AGEIF0", "n_lugar": 15, "par_gra": "S"}}, {"type": "Feature", "id": 2630, "geometry": {"type": "Point", "coordinates": [-8.610981332336998, 41.140643432311286]}, "properties": {"objectid": 2630, "toponimia": "CRIBE0", "n_lugar": 7, "par_gra": "S"}}, {"type": "Feature", "id": 1379, "geometry": {"type": "Point", "coordinates": [-8.65996766516378, 41.15978087174553]}, "properties": {"objectid": 1379, "toponimia": "RDJCA0", "n_lugar": 12, "par_gra": "S"}}, {"type": "Feature", "id": 2226, "geometry": {"type": "Point", "coordinates": [-8.641265035415262, 41.15982995418558]}, "properties": {"objectid": 2226, "toponimia": "ABOAV0", "n_lugar": 4, "par_gra": "S"}}, {"type": "Feature", "id": 2628, "geometry": {"type": "Point", "coordinates": [-8.61532336945158, 41.17785735498104]}, "properties": {"objectid": 2628, "toponimia": "RTELH0", "n_lugar": 6, "par_gra": "S"}}]}